{
    "users": [
        {"id": 1, "name": "Amit", "friends": [2, 3, 4, 5, 6], "liked_pages": [101, 102], "location": {"latitude": 28.6139, "longitude": 77.2090, "city": "New Delhi"}},
        {"id": 2, "name": "Priya", "friends": [1, 3, 5, 6, 7], "liked_pages": [102, 103], "location": {"latitude": 28.7041, "longitude": 77.1025, "city": "Delhi"}},
        {"id": 3, "name": "Rahul", "friends": [1, 2, 4, 7, 8], "liked_pages": [101, 103], "location": {"latitude": 19.0760, "longitude": 72.8777, "city": "Mumbai"}},
        {"id": 4, "name": "Sara", "friends": [1, 3, 6, 8, 9], "liked_pages": [104], "location": {"latitude": 18.9220, "longitude": 72.8330, "city": "South Mumbai"}},
        {"id": 5, "name": "Neha", "friends": [1, 2, 6, 10, 11], "liked_pages": [102, 105], "location": {"latitude": 28.5355, "longitude": 77.3910, "city": "Noida"}},
        {"id": 6, "name": "Vikram", "friends": [1, 2, 4, 5, 12], "liked_pages": [106], "location": {"latitude": 28.4595, "longitude": 77.0266, "city": "Gurugram"}},
        {"id": 7, "name": "Kunal", "friends": [2, 3, 8, 9, 13], "liked_pages": [101, 107], "location": {"latitude": 12.9716, "longitude": 77.5946, "city": "Bangalore"}},
        {"id": 8, "name": "Anjali", "friends": [3, 4, 7, 10, 14], "liked_pages": [103, 108], "location": {"latitude": 13.0827, "longitude": 77.5090, "city": "North Bangalore"}},
        {"id": 9, "name": "Ravi", "friends": [4, 7, 10, 11, 15], "liked_pages": [104, 109], "location": {"latitude": 17.3850, "longitude": 78.4867, "city": "Hyderabad"}},
        {"id": 10, "name": "Sneha", "friends": [5, 8, 9, 12, 16], "liked_pages": [110], "location": {"latitude": 17.4399, "longitude": 78.3981, "city": "West Hyderabad"}},
        {"id": 11, "name": "Arjun", "friends": [5, 9, 12, 14, 17], "liked_pages": [105, 111], "location": {"latitude": 22.5726, "longitude": 88.3639, "city": "Kolkata"}},
        {"id": 12, "name": "Meera", "friends": [6, 10, 11, 13, 18], "liked_pages": [112], "location": {"latitude": 22.6757, "longitude": 88.3730, "city": "North Kolkata"}},
        {"id": 13, "name": "Kabir", "friends": [7, 12, 14, 15, 19], "liked_pages": [106, 113], "location": {"latitude": 13.0827, "longitude": 80.2707, "city": "Chennai"}},
        {"id": 14, "name": "Tanya", "friends": [8, 11, 13, 16, 20], "liked_pages": [114], "location": {"latitude": 13.1067, "longitude": 80.2206, "city": "North Chennai"}},
        {"id": 15, "name": "Varun", "friends": [9, 13, 16, 17, 21], "liked_pages": [107, 115], "location": {"latitude": 23.0225, "longitude": 72.5714, "city": "Ahmedabad"}},
        {"id": 16, "name": "Rhea", "friends": [10, 14, 15, 18, 22], "liked_pages": [116], "location": {"latitude": 23.0728, "longitude": 72.5165, "city": "West Ahmedabad"}},
        {"id": 17, "name": "Ishan", "friends": [11, 15, 18, 19, 23], "liked_pages": [108, 117], "location": {"latitude": 26.8467, "longitude": 80.9462, "city": "Lucknow"}},
        {"id": 18, "name": "Simran", "friends": [12, 16, 17, 20, 24], "liked_pages": [118], "location": {"latitude": 26.7951, "longitude": 80.9047, "city": "South Lucknow"}},
        {"id": 19, "name": "Pooja", "friends": [13, 17, 20, 21, 25], "liked_pages": [109, 119], "location": {"latitude": 18.5204, "longitude": 73.8567, "city": "Pune"}},
        {"id": 20, "name": "Yash", "friends": [14, 18, 19, 22, 26], "liked_pages": [120], "location": {"latitude": 18.4529, "longitude": 73.8652, "city": "Central Pune"}},
        {"id": 21, "name": "Ananya", "friends": [15, 19, 22, 23, 27], "liked_pages": [110, 121], "location": {"latitude": 30.7333, "longitude": 76.7794, "city": "Chandigarh"}},
        {"id": 22, "name": "Dev", "friends": [16, 20, 21, 24, 28], "liked_pages": [122], "location": {"latitude": 30.7046, "longitude": 76.7179, "city": "West Chandigarh"}},
        {"id": 23, "name": "Aditi", "friends": [17, 21, 24, 25, 29], "liked_pages": [111, 123], "location": {"latitude": 11.0168, "longitude": 76.9558, "city": "Coimbatore"}},
        {"id": 24, "name": "Rohan", "friends": [18, 22, 23, 26, 30], "liked_pages": [124], "location": {"latitude": 11.0650, "longitude": 76.9003, "city": "North Coimbatore"}},
        {"id": 25, "name": "Nisha", "friends": [19, 23, 26, 27, 1], "liked_pages": [112], "location": {"latitude": 28.7041, "longitude": 77.1025, "city": "Delhi"}},
        {"id": 26, "name": "Gautam", "friends": [20, 24, 25, 28, 3], "liked_pages": [125], "location": {"latitude": 19.0760, "longitude": 72.8777, "city": "Mumbai"}},
        {"id": 27, "name": "Kriti", "friends": [21, 25, 28, 29, 5], "liked_pages": [113], "location": {"latitude": 28.5355, "longitude": 77.3910, "city": "Noida"}},
        {"id": 28, "name": "Harsh", "friends": [22, 26, 27, 30, 7], "liked_pages": [126], "location": {"latitude": 12.9716, "longitude": 77.5946, "city": "Bangalore"}},
        {"id": 29, "name": "Naveen", "friends": [23, 27, 30, 9, 11], "liked_pages": [114], "location": {"latitude": 17.3850, "longitude": 78.4867, "city": "Hyderabad"}},
        {"id": 30, "name": "Ishita", "friends": [24, 28, 29, 13, 15], "liked_pages": [127], "location": {"latitude": 13.0827, "longitude": 80.2707, "city": "Chennai"}},
        {"id": 31, "name": "Aryan", "friends": [32, 33, 34, 35, 36], "liked_pages": [101, 105], "location": {"latitude": 28.6139, "longitude": 77.2090, "city": "New Delhi"}},
        {"id": 32, "name": "Diya", "friends": [31, 33, 35, 36, 37], "liked_pages": [102, 106], "location": {"latitude": 28.7041, "longitude": 77.1025, "city": "Delhi"}},
        {"id": 33, "name": "Kabir", "friends": [31, 32, 34, 37, 38], "liked_pages": [103, 107], "location": {"latitude": 19.0760, "longitude": 72.8777, "city": "Mumbai"}},
        {"id": 34, "name": "Tara", "friends": [31, 33, 36, 38, 39], "liked_pages": [104, 108], "location": {"latitude": 18.9220, "longitude": 72.8330, "city": "South Mumbai"}},
        {"id": 35, "name": "Advait", "friends": [31, 32, 36, 40, 41], "liked_pages": [105, 109], "location": {"latitude": 28.5355, "longitude": 77.3910, "city": "Noida"}},
        {"id": 36, "name": "Myra", "friends": [31, 32, 34, 35, 42], "liked_pages": [106, 110], "location": {"latitude": 28.4595, "longitude": 77.0266, "city": "Gurugram"}},
        {"id": 37, "name": "Krish", "friends": [32, 33, 38, 39, 43], "liked_pages": [107, 111], "location": {"latitude": 12.9716, "longitude": 77.5946, "city": "Bangalore"}},
        {"id": 38, "name": "Siya", "friends": [33, 34, 37, 40, 44], "liked_pages": [108, 112], "location": {"latitude": 13.0827, "longitude": 77.5090, "city": "North Bangalore"}},
        {"id": 39, "name": "Jai", "friends": [34, 37, 40, 41, 45], "liked_pages": [109, 113], "location": {"latitude": 17.3850, "longitude": 78.4867, "city": "Hyderabad"}},
        {"id": 40, "name": "Anaya", "friends": [35, 38, 39, 42, 46], "liked_pages": [110, 114], "location": {"latitude": 17.4399, "longitude": 78.3981, "city": "West Hyderabad"}},
        {"id": 41, "name": "Reyansh", "friends": [35, 39, 42, 44, 47], "liked_pages": [111, 115], "location": {"latitude": 22.5726, "longitude": 88.3639, "city": "Kolkata"}},
        {"id": 42, "name": "Shanaya", "friends": [36, 40, 41, 43, 48], "liked_pages": [112, 116], "location": {"latitude": 22.6757, "longitude": 88.3730, "city": "North Kolkata"}},
        {"id": 43, "name": "Vivaan", "friends": [37, 42, 44, 45, 49], "liked_pages": [113, 117], "location": {"latitude": 13.0827, "longitude": 80.2707, "city": "Chennai"}},
        {"id": 44, "name": "Inaya", "friends": [38, 41, 43, 46, 50], "liked_pages": [114, 118], "location": {"latitude": 13.1067, "longitude": 80.2206, "city": "North Chennai"}},
        {"id": 45, "name": "Samar", "friends": [39, 43, 46, 47, 51], "liked_pages": [115, 119], "location": {"latitude": 23.0225, "longitude": 72.5714, "city": "Ahmedabad"}},
        {"id": 46, "name": "Kyra", "friends": [40, 44, 45, 48, 52], "liked_pages": [116, 120], "location": {"latitude": 23.0728, "longitude": 72.5165, "city": "West Ahmedabad"}},
        {"id": 47, "name": "Riaan", "friends": [41, 45, 48, 49, 53], "liked_pages": [117, 121], "location": {"latitude": 26.8467, "longitude": 80.9462, "city": "Lucknow"}},
        {"id": 48, "name": "Aisha", "friends": [42, 46, 47, 50, 54], "liked_pages": [118, 122], "location": {"latitude": 26.7951, "longitude": 80.9047, "city": "South Lucknow"}},
        {"id": 49, "name": "Vihaan", "friends": [43, 47, 50, 51, 55], "liked_pages": [119, 123], "location": {"latitude": 18.5204, "longitude": 73.8567, "city": "Pune"}},
        {"id": 50, "name": "Zara", "friends": [44, 48, 49, 52, 56], "liked_pages": [120, 124], "location": {"latitude": 18.4529, "longitude": 73.8652, "city": "Central Pune"}},
        {"id": 51, "name": "Shaurya", "friends": [45, 49, 52, 53, 57], "liked_pages": [121, 125], "location": {"latitude": 30.7333, "longitude": 76.7794, "city": "Chandigarh"}},
        {"id": 52, "name": "Layla", "friends": [46, 50, 51, 54, 58], "liked_pages": [122, 126], "location": {"latitude": 30.7046, "longitude": 76.7179, "city": "West Chandigarh"}},
        {"id": 53, "name": "Kiaan", "friends": [47, 51, 54, 55, 59], "liked_pages": [123, 127], "location": {"latitude": 11.0168, "longitude": 76.9558, "city": "Coimbatore"}},
        {"id": 54, "name": "Eva", "friends": [48, 52, 53, 56, 60], "liked_pages": [124, 101], "location": {"latitude": 11.0650, "longitude": 76.9003, "city": "North Coimbatore"}},
        {"id": 55, "name": "Arin", "friends": [49, 53, 56, 57, 61], "liked_pages": [125, 102], "location": {"latitude": 18.5204, "longitude": 73.8567, "city": "Pune"}},
        {"id": 56, "name": "Maya", "friends": [50, 54, 55, 58, 62], "liked_pages": [126, 103], "location": {"latitude": 18.4529, "longitude": 73.8652, "city": "Central Pune"}},
        {"id": 57, "name": "Rohan", "friends": [51, 55, 58, 59, 63], "liked_pages": [127, 104], "location": {"latitude": 30.7333, "longitude": 76.7794, "city": "Chandigarh"}},
        {"id": 58, "name": "Leila", "friends": [52, 56, 57, 60, 64], "liked_pages": [101, 105], "location": {"latitude": 30.7046, "longitude": 76.7179, "city": "West Chandigarh"}},
        {"id": 59, "name": "Ahaan", "friends": [53, 57, 60, 61, 65], "liked_pages": [102, 106], "location": {"latitude": 11.0168, "longitude": 76.9558, "city": "Coimbatore"}},
        {"id": 60, "name": "Naomi", "friends": [54, 58, 59, 62, 66], "liked_pages": [103, 107], "location": {"latitude": 11.0650, "longitude": 76.9003, "city": "North Coimbatore"}},
        {"id": 61, "name": "Dhruv", "friends": [55, 59, 62, 63, 67], "liked_pages": [104, 108], "location": {"latitude": 18.5204, "longitude": 73.8567, "city": "Pune"}},
        {"id": 62, "name": "Kiara", "friends": [56, 60, 61, 64, 68], "liked_pages": [105, 109], "location": {"latitude": 18.4529, "longitude": 73.8652, "city": "Central Pune"}},
        {"id": 63, "name": "Pranav", "friends": [57, 61, 64, 65, 69], "liked_pages": [106, 110], "location": {"latitude": 30.7333, "longitude": 76.7794, "city": "Chandigarh"}},
        {"id": 64, "name": "Naira", "friends": [58, 62, 63, 66, 70], "liked_pages": [107, 111], "location": {"latitude": 30.7046, "longitude": 76.7179, "city": "West Chandigarh"}},
        {"id": 65, "name": "Aarav", "friends": [59, 63, 66, 67, 71], "liked_pages": [108, 112], "location": {"latitude": 11.0168, "longitude": 76.9558, "city": "Coimbatore"}},
        {"id": 66, "name": "Shanvi", "friends": [60, 64, 65, 68, 72], "liked_pages": [109, 113], "location": {"latitude": 11.0650, "longitude": 76.9003, "city": "North Coimbatore"}},
        {"id": 67, "name": "Yuvraj", "friends": [61, 65, 68, 69, 73], "liked_pages": [110, 114], "location": {"latitude": 18.5204, "longitude": 73.8567, "city": "Pune"}},
        {"id": 68, "name": "Samaira", "friends": [62, 66, 67, 70, 74], "liked_pages": [111, 115], "location": {"latitude": 18.4529, "longitude": 73.8652, "city": "Central Pune"}},
        {"id": 69, "name": "Veer", "friends": [63, 67, 70, 71, 75], "liked_pages": [112, 116], "location": {"latitude": 30.7333, "longitude": 76.7794, "city": "Chandigarh"}},
        {"id": 70, "name": "Mira", "friends": [64, 68, 69, 72, 76], "liked_pages": [113, 117], "location": {"latitude": 30.7046, "longitude": 76.7179, "city": "West Chandigarh"}},
        {"id": 71, "name": "Krishiv", "friends": [65, 69, 72, 73, 77], "liked_pages": [114, 118], "location": {"latitude": 11.0168, "longitude": 76.9558, "city": "Coimbatore"}},
        {"id": 72, "name": "Saanvi", "friends": [66, 70, 71, 74, 78], "liked_pages": [115, 119], "location": {"latitude": 11.0650, "longitude": 76.9003, "city": "North Coimbatore"}},
        {"id": 73, "name": "Ishaan", "friends": [67, 71, 74, 75, 79], "liked_pages": [116, 120], "location": {"latitude": 18.5204, "longitude": 73.8567, "city": "Pune"}},
        {"id": 74, "name": "Anya", "friends": [68, 72, 73, 76, 80], "liked_pages": [117, 121], "location": {"latitude": 18.4529, "longitude": 73.8652, "city": "Central Pune"}},
        {"id": 75, "name": "Kabir", "friends": [69, 73, 76, 77, 81], "liked_pages": [118, 122], "location": {"latitude": 30.7333, "longitude": 76.7794, "city": "Chandigarh"}},
        {"id": 76, "name": "Zara", "friends": [70, 74, 75, 78, 82], "liked_pages": [119, 123], "location": {"latitude": 30.7046, "longitude": 76.7179, "city": "West Chandigarh"}},
        {"id": 77, "name": "Rudra", "friends": [71, 75, 78, 79, 83], "liked_pages": [120, 124], "location": {"latitude": 11.0168, "longitude": 76.9558, "city": "Coimbatore"}},
        {"id": 78, "name": "Shanaya", "friends": [72, 76, 77, 80, 84], "liked_pages": [121, 125], "location": {"latitude": 11.0650, "longitude": 76.9003, "city": "North Coimbatore"}},
        {"id": 79, "name": "Vivaan", "friends": [73, 77, 80, 81, 85], "liked_pages": [122, 126], "location": {"latitude": 18.5204, "longitude": 73.8567, "city": "Pune"}},
        {"id": 80, "name": "Myra", "friends": [74, 78, 79, 82, 86], "liked_pages": [123, 127], "location": {"latitude": 18.4529, "longitude": 73.8652, "city": "Central Pune"}},
        {"id": 81, "name": "Advait", "friends": [75, 79, 82, 83, 87], "liked_pages": [124, 101], "location": {"latitude": 30.7333, "longitude": 76.7794, "city": "Chandigarh"}},
        {"id": 82, "name": "Diya", "friends": [76, 80, 81, 84, 88], "liked_pages": [125, 102], "location": {"latitude": 30.7046, "longitude": 76.7179, "city": "West Chandigarh"}},
        {"id": 83, "name": "Aryan", "friends": [77, 81, 84, 85, 89], "liked_pages": [126, 103], "location": {"latitude": 11.0168, "longitude": 76.9558, "city": "Coimbatore"}},
        {"id": 84, "name": "Priya", "friends": [78, 82, 83, 86, 90], "liked_pages": [127, 104], "location": {"latitude": 11.0650, "longitude": 76.9003, "city": "North Coimbatore"}},
        {"id": 85, "name": "Amit", "friends": [79, 83, 86, 87, 91], "liked_pages": [101, 105], "location": {"latitude": 18.5204, "longitude": 73.8567, "city": "Pune"}},
        {"id": 86, "name": "Neha", "friends": [80, 84, 85, 88, 92], "liked_pages": [102, 106], "location": {"latitude": 18.4529, "longitude": 73.8652, "city": "Central Pune"}},
        {"id": 87, "name": "Vikram", "friends": [81, 85, 88, 89, 93], "liked_pages": [103, 107], "location": {"latitude": 30.7333, "longitude": 76.7794, "city": "Chandigarh"}},
        {"id": 88, "name": "Sara", "friends": [82, 86, 87, 90, 94], "liked_pages": [104, 108], "location": {"latitude": 30.7046, "longitude": 76.7179, "city": "West Chandigarh"}},
        {"id": 89, "name": "Kunal", "friends": [83, 87, 90, 91, 95], "liked_pages": [105, 109], "location": {"latitude": 11.0168, "longitude": 76.9558, "city": "Coimbatore"}},
        {"id": 90, "name": "Anjali", "friends": [84, 88, 89, 92, 96], "liked_pages": [106, 110], "location": {"latitude": 11.0650, "longitude": 76.9003, "city": "North Coimbatore"}},
        {"id": 91, "name": "Ravi", "friends": [85, 89, 92, 93, 97], "liked_pages": [107, 111], "location": {"latitude": 18.5204, "longitude": 73.8567, "city": "Pune"}},
        {"id": 92, "name": "Sneha", "friends": [86, 90, 91, 94, 98], "liked_pages": [108, 112], "location": {"latitude": 18.4529, "longitude": 73.8652, "city": "Central Pune"}},
        {"id": 93, "name": "Arjun", "friends": [87, 91, 94, 95, 99], "liked_pages": [109, 113], "location": {"latitude": 30.7333, "longitude": 76.7794, "city": "Chandigarh"}},
        {"id": 94, "name": "Meera", "friends": [88, 92, 93, 96, 100], "liked_pages": [110, 114], "location": {"latitude": 30.7046, "longitude": 76.7179, "city": "West Chandigarh"}},
        {"id": 95, "name": "Kabir", "friends": [89, 93, 96, 97, 31], "liked_pages": [111, 115], "location": {"latitude": 11.0168, "longitude": 76.9558, "city": "Coimbatore"}},
        {"id": 96, "name": "Tanya", "friends": [90, 94, 95, 98, 32], "liked_pages": [112, 116], "location": {"latitude": 11.0650, "longitude": 76.9003, "city": "North Coimbatore"}},
        {"id": 97, "name": "Varun", "friends": [91, 95, 98, 99, 33], "liked_pages": [113, 117], "location": {"latitude": 18.5204, "longitude": 73.8567, "city": "Pune"}},
        {"id": 98, "name": "Rhea", "friends": [92, 96, 97, 100, 34], "liked_pages": [114, 118], "location": {"latitude": 18.4529, "longitude": 73.8652, "city": "Central Pune"}},
        {"id": 99, "name": "Ishan", "friends": [93, 97, 100, 31, 35], "liked_pages": [115, 119], "location": {"latitude": 30.7333, "longitude": 76.7794, "city": "Chandigarh"}},
        {"id": 100, "name": "Simran", "friends": [94, 98, 99, 32, 36], "liked_pages": [116, 120], "location": {"latitude": 30.7046, "longitude": 76.7179, "city": "West Chandigarh"}}
    ],
    "pages": [
        {"id": 101, "name": "Python Developers"},
        {"id": 102, "name": "Data Science Enthusiasts"},
        {"id": 103, "name": "AI & ML Community"},
        {"id": 104, "name": "Web Dev Hub"},
        {"id": 105, "name": "Blockchain Innovators"},
        {"id": 106, "name": "Cybersecurity Experts"},
        {"id": 107, "name": "Cloud Computing Pros"},
        {"id": 108, "name": "Competitive Programmers"},
        {"id": 109, "name": "Startup Founders"},
        {"id": 110, "name": "UI/UX Designers"},
        {"id": 111, "name": "Full-Stack Developers"},
        {"id": 112, "name": "Tech Entrepreneurs"},
        {"id": 113, "name": "IoT Enthusiasts"},
        {"id": 114, "name": "Game Developers"},
        {"id": 115, "name": "Big Data Analysts"},
        {"id": 116, "name": "DevOps Engineers"},
        {"id": 117, "name": "Cloud AI Researchers"},
        {"id": 118, "name": "5G & Edge Computing"},
        {"id": 119, "name": "AR/VR Creators"},
        {"id": 120, "name": "Freelance Coders"},
        {"id": 121, "name": "Open Source Contributors"},
        {"id": 122, "name": "Algorithmic Traders"},
        {"id": 123, "name": "Low-Code Developers"},
        {"id": 124, "name": "Cyber Ethics Forum"},
        {"id": 125, "name": "AI Ethics & Policy"},
        {"id": 126, "name": "Digital Nomads"},
        {"id": 127, "name": "Women in Tech"}
    ]
}